Name,State,Date,Latitude,Longitude
Abbottsford,Michigan,08/01/1904,43.020028,-82.6332564
Ada,Michigan,07/01/1901,42.9541963,-85.4889121
Addison,Michigan,04/01/1903,41.9863066,-84.3479749
Adrian,Michigan,12/04/1899,41.8975471,-84.0371659
Akron,Michigan,03/02/1903,43.5680759,-83.5141259
Alamo,Michigan,10/01/1903,42.3753143,-85.7077914
Albion,Michigan,03/15/1900,42.243097,-84.7530304
Alger,Michigan,07/01/1902,46.4047895,-86.5280993
Algonac,Michigan,12/15/1903,42.6183675,-82.531018
Allegan,Michigan,07/23/1900,42.5867203,-85.8861492
Allen,Michigan,07/01/1901,41.9571583,-84.7680831
Alma,Michigan,07/16/1900,43.3789199,-84.6597274
Almont,Michigan,08/01/1902,42.9205842,-83.0449348
Alpena,Michigan,03/01/1902,45.0616794,-83.4327528
Alpine,Michigan,10/01/1903,43.0728031,-85.6850351
Alto,Michigan,02/02/1903,42.8566988,-85.3802937
Amadore,Michigan,09/01/1904,43.1950266,-82.5857581
Ann Arbor,Michigan,03/15/1900,42.2681569,-83.7312291
Applegate,Michigan,04/01/1904,43.3553017,-82.6371499
Arcadia,Michigan,11/01/1901,44.4930555,-86.2317586
Armada,Michigan,07/01/1903,42.8441964,-82.8843722
Ashley,Michigan,02/01/1902,43.186696,-84.4744347
Athens,Michigan,07/01/1902,42.0886576,-85.2347052
Atkins,Michigan,10/01/1903,43.0630836,-82.5768666
Attica,Michigan,10/01/1903,43.0303053,-83.1660514
Auburn,Michigan,03/01/1902,43.6033583,-84.0697048
Augres,Michigan,04/01/1904,43.988923,-83.6823189
Augusta,Michigan,10/01/1903,42.3364294,-85.3522219
Avoca,Michigan,11/02/1903,43.0619715,-82.6910367
Azalia,Michigan,07/01/1903,42.018933,-83.665771
Bad Axe,Michigan,08/01/1902,43.8019592,-83.0007774
Bancroft,Michigan,05/01/1900,42.8786421,-84.0638525
Bangor,Michigan,04/01/1903,42.3125356,-86.1130794
Bannister,Michigan,03/16/1903,43.1325286,-84.4216521
Baroda,Michigan,10/01/1903,41.9570248,-86.4843483
Barryton,Michigan,04/15/1904,43.7525253,-85.1469787
Batavia,Michigan,08/01/1904,41.9125489,-85.0980258
Bath,Michigan,04/01/1902,42.8189923,-84.4489754
Battlecreek,Michigan,04/02/1900,nf,nf
Bay City,Michigan,10/01/1900,43.5944677,-83.8888648
Bayport,Michigan,09/01/1902,42.8541948,-83.7177299
Bayshore,Michigan,07/15/1904,44.2559296,-83.5320379
Bearlake,Michigan,09/15/1903,nf,nf
Beaverton,Michigan,04/15/1904,43.8822464,-84.4847316
Belding,Michigan,10/01/1901,43.0978095,-85.228906
Bellaire,Michigan,10/15/1904,44.9802822,-85.2111728
Belleville,Michigan,03/01/1902,42.2047619,-83.4852133
Bellevue,Michigan,04/01/1903,42.4435593,-85.0178291
Belmont,Michigan,02/02/1903,43.0755822,-85.6091987
Bendon,Michigan,10/01/1903,44.6330566,-85.8378587
Bennington,Michigan,08/01/1902,42.9353058,-84.2419148
Benton Harbor,Michigan,10/15/1898,42.1167065,-86.4541894
Benzonia,Michigan,10/01/1903,44.6213885,-86.0992576
Berlamont,Michigan,06/01/1904,42.3900347,-85.9939137
Berlin,Michigan,09/15/1903,42.034624,-83.2525922947091
Berrien Center,Michigan,04/01/1903,41.9567124,-86.2766818
Berrien Springs,Michigan,10/01/1902,41.9464336,-86.3388965
Berville,Michigan,11/02/1903,42.9083621,-82.8829846
Big Rapids,Michigan,09/01/1903,43.6980782,-85.4836558
Birchrun,Michigan,07/01/1903,43.889913,-85.7700639
Birmingham,Michigan,05/01/1902,42.5467012,-83.2113192
Blaine,Michigan,12/01/1904,43.1158607,-82.5807565
Blanchard,Michigan,03/01/1902,43.5197478,-85.0797983
Blissfield,Michigan,04/16/1900,41.8325487,-83.8624411
Bloomingdale,Michigan,04/01/1903,42.3828129,-85.9569675
Boyne,Michigan,10/01/1903,45.2166751,-85.0139419
Bravo,Michigan,06/01/1904,42.5130856,-86.0919755
Breckenridge,Michigan,04/01/1902,43.4080849,-84.4749978
Bridgeport,Michigan,07/01/1902,43.3594696,-83.8816364
Bridgman,Michigan,02/15/1904,41.9430986,-86.5569659
Brighton,Michigan,03/01/1901,42.5316757,-83.7844489
Britton,Michigan,04/01/1903,41.9867114,-83.8310513
Bronson,Michigan,05/01/1900,41.8722716,-85.1946963
Brooklyn,Michigan,09/01/1900,42.105874,-84.2482819
Brown City,Michigan,10/01/1900,43.2122486,-82.9896604
Buchanan,Michigan,08/01/1901,41.8272684,-86.3611249
Burlington,Michigan,07/01/1902,42.1067125,-85.0796988
Burnside,Michigan,02/01/1904,43.210582,-83.0771632
Burr Oak,Michigan,07/01/1901,41.847272,-85.3185899
Burt,Michigan,05/15/1901,43.2366929,-83.9063571
Burton,Michigan,07/01/1901,42.9994718,-83.6163424
Butternut,Michigan,03/01/1902,43.1833659,-84.9155639
Byron,Michigan,11/01/1900,42.8228091,-83.9444027
Byron Center,Michigan,11/01/1901,42.8122508,-85.7228062
Cadillac,Michigan,09/15/1903,44.2519526,-85.4011619
Caldwell,Michigan,04/15/1904,43.663309,-116.6740829
Caledonia,Michigan,12/02/1901,42.7891985,-85.5166864
Cambria,Michigan,12/15/1903,41.8219931,-84.6649543
Camden,Michigan,12/01/1900,41.7522716,-84.7577335
Capac,Michigan,10/01/1900,43.0125274,-82.9279881
Carleton,Michigan,03/01/1902,42.0592101,-83.3907658
Caro,Michigan,04/02/1900,43.4911322,-83.396897
Carson City,Michigan,04/01/1902,43.1769772,-84.8463945
Carsonville,Michigan,09/01/1902,43.4269667,-82.6713183
Caseville,Michigan,08/01/1902,43.9411253,-83.2713468
Casnovia,Michigan,10/01/1903,43.2347449,-85.7906006
Cass City,Michigan,09/01/1903,43.6008515,-83.1746693
Cassopolis,Michigan,10/01/1901,41.9117134,-86.0100069
Cedar Springs,Michigan,05/14/1900,43.2233604,-85.5514237
Cement City,Michigan,04/01/1903,42.0700423,-84.3305042
Centerville,Michigan,02/01/1902,42.290022,-83.3717509
Central Lake,Michigan,04/15/1904,45.0700047,-85.2645105
Ceresco,Michigan,07/23/1900,42.2719866,-85.0613739
Charlevoix,Michigan,09/15/1903,45.202075,-84.9676387
Charlotte,Michigan,10/15/1900,42.5637369,-84.8355792
Cheboygan,Michigan,10/01/1904,45.4417481,-84.4768486
Chelsea,Michigan,05/15/1901,42.3180163,-84.020224
Chesaning,Michigan,08/15/1900,43.1847483,-84.1149747
Chief,Michigan,11/01/1901,43.091737,-86.2323709
Chilson,Michigan,03/02/1903,42.5269777,-83.8616126
Clare ,Michigan,09/01/1903,43.9688673,-84.8505091
Clarklake,Michigan,11/01/1904,42.1214293,-84.344951
Clarkston,Michigan,09/01/1900,42.7086411,-83.4396633
Clarksville,Michigan,08/15/1902,42.8422556,-85.2425097
Clayton,Michigan,04/01/1902,41.863381,-84.2363347
Clifford,Michigan,12/01/1903,43.3147467,-83.1791117
Climax,Michigan,12/03/1896,42.2383765,-85.3349948
Clinton,Michigan,11/15/1900,42.9435238,-84.6125345
Clio,Michigan,09/01/1902,43.1775257,-83.7341274
Clyde,Michigan,09/01/1902,42.6808632,-83.6179998
Coldwater,Michigan,09/01/1900,41.9403263,-85.0005215
Coleman,Michigan,04/15/1904,43.7566946,-84.5858431
Coloma,Michigan,10/01/1903,42.1861494,-86.308356
Colon  ,Michigan,08/01/1902,41.9583823,-85.3249817
Columbiaville,Michigan,01/15/1904,43.1566927,-83.4105053
Concord,Michigan,08/01/1902,42.1778187,-84.6430206
Conklin,Michigan,09/02/1901,43.1289111,-85.8814335
Conners Creek,Michigan,09/15/1904,42.3605909,-82.9565195
Constantine,Michigan,03/01/1902,41.8411603,-85.6686026
Coopersville,Michigan,07/01/1901,43.0639112,-85.9347667
Copemish,Michigan,02/01/1902,44.4816689,-85.9225807
Coral,Michigan,09/15/1903,43.3628064,-85.4028112
Corunna,Michigan,11/01/1900,42.9819728,-84.1177451
Covert ,Michigan,10/01/1903,42.2936458,-86.2622477
Cressey,Michigan,01/15/1904,42.4280933,-85.4713969
Croswell,Michigan,11/02/1903,43.2755809,-82.621038
Crystal,Michigan,03/01/1904,43.263088,-84.9147337
Custer,Michigan,10/01/1903,43.9519512,-86.2195212
Daggett,Michigan,08/01/1904,45.4635827,-87.6065069
Danville,Michigan,03/16/1903,42.802462,-83.2492339
Davisburg,Michigan,04/01/1902,42.7522507,-83.5413334
Davison,Michigan,02/01/1901,43.0347491,-83.5180063
Dearborn,Michigan,09/02/1901,42.3222599,-83.1763145
Decatur,Michigan,03/01/1902,42.1080979,-85.9744569
Deckerville,Michigan,04/01/1903,43.5266861,-82.7352105
Deerfield,Michigan,07/01/1903,41.888936,-83.7788283
Deford,Michigan,10/01/1903,43.5133532,-83.192446
Delton,Michigan,05/16/1904,42.4997581,-85.4080641
Denton,Michigan,09/01/1903,42.2578162,-83.5241034
Detroit,Michigan,05/16/1898,42.3486635,-83.0567375
Devils Lake,Michigan,07/01/1903,42.0078222,-84.2924456
Dewitt,Michigan,03/16/1903,42.842382,-84.5694103
Dexter,Michigan,11/01/1901,42.3383697,-83.8885553
Dimondale,Michigan,09/01/1902,42.6454313,-84.6489906
Dorr,Michigan,09/15/1903,42.725308,-85.7225259
Doster,Michigan,04/01/1903,42.4658695,-85.5416787
Dowagiac,Michigan,02/01/1902,41.9842123,-86.1086228
Dowling,Michigan,04/01/1904,42.5225362,-85.2530589
Dryden,Michigan,10/01/1900,42.9461395,-83.1238265
Dundee,Michigan,07/01/1903,41.9572676,-83.6596596
Durand,Michigan,05/14/1900,42.911913,-83.9845105
Dutton,Michigan,10/01/1903,42.8411411,-85.5850238
Eagle,Michigan,03/15/1901,42.8078125,-84.788601
East Jordan,Michigan,10/01/1903,45.1580628,-85.1242254
East Leroy,Michigan,11/02/1903,42.1661559,-85.2174862
East Saugatuck,Michigan,11/01/1904,42.6816926,-86.0930928
Eaton Rapids,Michigan,09/15/1900,42.5092039,-84.655814
Eau Claire,Michigan,04/01/1903,41.9850452,-86.2997387
Eckford,Michigan,07/05/1899,42.2019873,-84.8663643
Edmore,Michigan,01/01/1904,43.4080869,-85.0386317
Edwardsburg,Michigan,08/01/1902,41.7956038,-86.0808384
Elba,Michigan,08/01/1904,43.0364159,-83.4399484
Elk Rapids,Michigan,10/01/1903,44.8955578,-85.4164605
Elkton,Michigan,10/01/1903,43.8195418,-83.1813364
Elkton,Michigan,11/02/1903,43.8195418,-83.1813364
Ellsworth,Michigan,09/15/1904,45.165562,-85.2461768
Elmhall,Michigan,07/15/1904,nf,nf
Elsie ,Michigan,11/01/1900,43.0886393,-84.3869261
Elwell,Michigan,02/01/1904,43.3875317,-84.7458424
Emmett,Michigan,10/15/1900,42.9905832,-82.7649266
Empire,Michigan,10/01/1904,44.8111081,-86.0600933
Erie,Michigan,06/01/1904,41.7934538,-83.4971152
Evart,Michigan,09/15/1903,43.9005752,-85.2580971
Fairgrove,Michigan,11/01/1900,43.5236323,-83.5432925
Fairhaven,Michigan,07/15/1904,42.152528,-83.2184199
Farmington ,Michigan,08/01/1900,42.4644795,-83.3763219
Farwell,Michigan,03/01/1902,43.8350247,-84.8669666
Fennville,Michigan,10/15/1900,42.5939168,-86.1017009
Fenton,Michigan,10/15/1900,42.7978061,-83.7049498
Fenwick,Michigan,03/01/1902,43.1491988,-85.0802908
Fife Lake,Michigan,12/01/1904,44.5769496,-85.3506136
Filion,Michigan,10/15/1904,43.8955701,-83.0035566
Flat Rock,Michigan,09/01/1902,42.0964314,-83.2918744
Flint,Michigan,11/15/1900,43.0171773,-83.7236024
Flushing,Michigan,08/15/1900,43.0630834,-83.8510732
Foresthill,Michigan,12/15/1904,39.0550545,-120.7629968
Fosters,Michigan,07/01/1902,43.2980814,-83.9163587
Fostoria,Michigan,02/15/1904,43.2533586,-83.3718948
Fountain,Michigan,10/15/1904,44.0466729,-86.1786886
Fowler,Michigan,04/16/1900,43.0017113,-84.7398622
Fowlerville,Michigan,06/04/1900,42.6605894,-84.0730142
Frankenmuth,Michigan,10/15/1904,43.3317866,-83.7380544
Freeland,Michigan,05/01/1902,43.5250265,-84.1227598
Freeport,Michigan,04/01/1903,42.7661449,-85.3133439
Freesoil,Michigan,10/01/1901,44.144837,-86.4046319
Fremont,Michigan,08/15/1900,43.4675173,-85.9420013
Frontier,Michigan,12/15/1903,41.7817161,-84.6046739
Fulton,Michigan,10/01/1903,47.2988114,-88.3601113
Gagetown,Michigan,09/01/1903,43.6572396,-83.2449503
Gaines Station,Michigan,05/01/1902,42.8725303,-83.9141254
Galesburg,Michigan,10/01/1903,42.2886529,-85.418056
Galien,Michigan,08/01/1902,41.7981007,-86.4991852
Gaylord,Michigan,04/15/1904,45.0275126,-84.6747523
Gera,Michigan,03/02/1903,43.387246,-83.738576
Gilead,Michigan,11/01/1904,41.8008832,-85.1555267
Gladwin,Michigan,07/01/1902,43.9747774,-84.3873235
Gobleville,Michigan,03/01/1902,nf,nf
Goodells,Michigan,10/01/1903,42.9811394,-82.6657566
Goodison,Michigan,07/01/1903,42.7328093,-83.1624353
Goodrich,Michigan,08/01/1902,42.916972,-83.5063365
Gowen,Michigan,02/15/1904,43.2516973,-85.30197
Grand Blanc,Michigan,07/01/1902,42.9275277,-83.6299518
Grand Haven,Michigan,07/01/1901,43.0630734,-86.2283864
Grand Junction,Michigan,09/15/1903,42.4042001,-86.0730823
Grand Ledge,Michigan,06/04/1900,42.7533685,-84.7463757
Grand Rapids,Michigan,10/16/1899,42.9632405,-85.6678639
Grandville,Michigan,09/15/1902,42.9097484,-85.7630885
Grant,Michigan,07/01/1901,43.3361324,-85.8108819
Grass Lake,Michigan,09/05/1899,42.2508691,-84.2130083
Greenfield,Michigan,08/01/1902,41.9334738,-83.4220151
Greenville,Michigan,02/01/1901,43.1775314,-85.2527987
Gregory,Michigan,10/01/1902,42.4583684,-84.0843979
Grindstone,Michigan,10/01/1903,46.158929,-86.2560349
Grosse Ile,Michigan,08/15/1902,42.1455033,-83.1537998344552
Grosse Pointe Farms,Michigan,05/02/1904,42.4092038,-82.8918587
Hamburg,Michigan,08/01/1900,42.4486456,-83.8016097
Hamilton,Michigan,06/01/1904,42.6772496,-86.0061464
Hand Station,Michigan,09/01/1903,42.21489605,-83.2513058374909
Hanover,Michigan,04/01/1902,42.1011532,-84.5519004
Harbor Beach,Michigan,10/15/1900,43.8416816,-82.6415957
Harbor Springs,Michigan,08/01/1902,45.4316759,-84.9919992
Harrison,Michigan,09/15/1903,44.0191862,-84.7994675
Harrisville,Michigan,03/01/1902,44.6564022,-83.2946892
Hart,Michigan,04/01/1902,43.6983408,-86.3639652
Hartford,Michigan,04/01/1903,42.2067051,-86.1666876
Harvard,Michigan,10/01/1903,43.1944736,-85.4166949
Hastings,Michigan,07/01/1901,42.6458683,-85.2908404
Hemlock,Michigan,07/01/1902,43.4147379,-84.229942
Henderson,Michigan,07/01/1902,43.0864149,-84.1952514
Hersey,Michigan,09/15/1903,43.8486301,-85.4444913
Hesperia,Michigan,04/15/1904,43.5689029,-86.0395071
Hickey,Michigan,11/02/1903,46.3573543,-86.484091
Highland Park,Michigan,11/01/1902,42.4057135,-83.0969467
Highland Station,Michigan,07/01/1902,42.4057135,-83.0969467
Hillsdale,Michigan,07/05/1899,41.8779105,-84.5984396
Hobson,Michigan,09/15/1904,42.340469,-83.0680439
Holland,Michigan,07/01/1901,42.7876022,-86.1090828
Holloway,Michigan,09/01/1902,41.9350461,-83.914386
Holly,Michigan,05/01/1901,42.7919727,-83.6277255
Holt,Michigan,09/15/1900,42.636551,-84.5225270241942
Holton,Michigan,11/01/1901,43.4133486,-86.0795043
Homer,Michigan,03/15/1900,42.1461479,-84.8092709
Hopkins Station,Michigan,04/01/1903,42.6236425,-85.7603024
Horton,Michigan,07/01/1902,42.1503176,-84.5171784
Howard City,Michigan,09/15/1903,43.3955831,-85.467815
Howell,Michigan,08/15/1900,42.6072552,-83.9293952
Hubbardston,Michigan,01/01/1904,43.0922552,-84.8422239
Hudson,Michigan,07/23/1900,41.855048,-84.3538359
Hudsonville,Michigan,11/01/1902,42.870859,-85.8650358
Hunters Creek,Michigan,11/01/1904,42.9855835,-83.2938322
Ida,Michigan,07/01/1903,41.9109023,-83.5734578
Imlay City,Michigan,08/01/1902,43.0247496,-83.0777153
Inkster,Michigan,09/01/1903,42.2942045,-83.3099303
Ionia,Michigan,12/04/1899,42.9469688,-85.0713945
Iron Mountain,Michigan,05/16/1904,45.8202334,-88.0659603
Ithaca,Michigan,04/01/1902,43.2916975,-84.6075004
Jackson,Michigan,05/01/1900,42.2465036,-84.4016963
Jasper,Michigan,12/01/1902,41.7933831,-84.0405002
Jeddo,Michigan,09/01/1904,43.1516937,-82.5832572
Jenison,Michigan,09/02/1901,42.9072481,-85.7919784
Jerome,Michigan,12/01/1900,42.0269888,-84.4693935
Jonesville,Michigan,06/04/1900,41.9842131,-84.6619016
Kalamazoo,Michigan,10/15/1900,42.291707,-85.5872286
Kalkaska,Michigan,03/01/1902,44.6780512,-85.1002509
Kawkawlin,Michigan,02/01/1902,43.6519675,-83.9430352
Kendall,Michigan,04/01/1903,42.3617027,-85.81335
Kent City,Michigan,08/01/1901,43.2200235,-85.7511542
Kibbie,Michigan,02/01/1902,42.4189202,-86.1875289
Kinde,Michigan,07/15/1904,43.9394588,-82.9968902
Kingsley,Michigan,09/15/1903,45.9257936,-87.2631923
Kingston,Michigan,09/15/1903,43.4144665,-83.1857787
Laingsburg,Michigan,11/01/1900,42.8915618,-84.3496697
Lake Odessa,Michigan,05/01/1902,42.7847564,-85.1383367
Lakeview,Michigan,12/02/1901,41.833375,-86.692803
Lamb,Michigan,07/15/1904,44.612513,-84.8669809
Lamb,Michigan,10/01/1904,44.612513,-84.8669809
Lambertville,Michigan,12/01/1904,41.7658819,-83.6279921
Lansing,Michigan,10/02/1899,42.7337712,-84.5553805
Lapeer,Michigan,08/01/1902,43.0904764,-83.2333705
Lawrence,Michigan,03/01/1902,42.2192056,-86.051408
Lawton,Michigan,04/01/1903,42.1672629,-85.8469539
Lennon,Michigan,05/01/1902,42.984845,-83.9324084960351
Lenox,Michigan,01/15/1904,42.75759,-82.8570819
Leonard,Michigan,09/15/1903,42.8653073,-83.1427148
Leonidas,Michigan,09/01/1902,42.0228261,-85.3519294
Leroy,Michigan,09/01/1903,45.2200137,-83.5208142
Leslie,Michigan,03/15/1900,42.4514253,-84.4324695
Lincoln Lake,Michigan,10/01/1903,44.68314885,-83.4196274950975
Linden,Michigan,09/01/1902,42.8144731,-83.7824527
Linwood,Michigan,09/01/1903,43.7391889,-83.9622052
Litchfield,Michigan,12/15/1900,42.044314,-84.7584316
Loomis,Michigan,02/01/1904,43.7936379,-84.6661241
Lowell,Michigan,03/01/1900,42.9336426,-85.3419609
Lowell,Michigan,07/01/1901,42.9336426,-85.3419609
Lucas,Michigan,10/15/1904,44.2183434,-85.2850453
Luce,Michigan,10/15/1904,46.4824144,-85.5556156
Ludington,Michigan,08/15/1900,43.9552826,-86.4525831
Lum,Michigan,04/01/1904,43.0994714,-83.1510522
Luther,Michigan,04/15/1904,44.0402885,-85.6825586
Lyons,Michigan,07/01/1902,42.9819773,-84.9469455
Manchester,Michigan,11/01/1900,42.1503178,-84.0377231
Manistee,Michigan,03/01/1902,44.3308044,-86.0262043
Manistique,Michigan,04/15/1904,45.9577506,-86.2462524
Manton,Michigan,09/02/1901,44.4108396,-85.3989439
Maple Rapids,Michigan,03/16/1903,43.1047548,-84.6919407
Marcellus,Michigan,11/01/1902,42.0258779,-85.8155576
Marine City,Michigan,12/01/1903,42.7194778,-82.492132
Marion,Michigan,09/01/1904,44.1025148,-85.1469835
Marlette,Michigan,07/01/1902,43.3269685,-83.08022
Marshall,Michigan,07/01/1901,42.2722641,-84.9633148
Martin,Michigan,09/15/1903,42.5369783,-85.6416846
Mason,Michigan,10/01/1900,43.9778831,-86.246291
Mattawan,Michigan,12/02/1901,42.2094839,-85.784453
Maybee,Michigan,08/01/1903,42.0043674,-83.5156525
Mayville,Michigan,11/01/1900,43.3369682,-83.3524502
Mc Cords,Michigan,07/01/1902,nf,nf
Mc Gregor,Michigan,04/01/1904,45.126714,-85.0743309
Mears,Michigan,11/15/1904,43.6819514,-86.4197997
Melvin,Michigan,12/15/1903,43.1864147,-82.8616
Memphis,Michigan,10/01/1900,42.8964179,-82.7688135
Mendon,Michigan,09/15/1900,42.0064378,-85.4499887
Menominee,Michigan,03/02/1903,45.5785741,-87.562159
Merrill,Michigan,07/01/1902,43.4101011,-84.3310587
Mesick,Michigan,02/15/1904,44.4052816,-85.713401
Metamora,Michigan,10/01/1903,42.9414173,-83.2891092
Middleton,Michigan,03/01/1902,43.1824002,-84.7100749468566
Middleville,Michigan,05/01/1899,42.7130889,-85.4619599
Midland,Michigan,07/01/1902,43.6155825,-84.2472117
Milan,Michigan,11/01/1902,42.0853204,-83.6824384
Milford,Michigan,08/15/1900,42.5936428,-83.5993856
Millington,Michigan,09/01/1900,43.2814133,-83.5296774
Minden City,Michigan,07/01/1903,43.6714056,-82.7782681
Moline,Michigan,03/01/1902,42.7403502,-85.6659439
Monroe,Michigan,06/04/1900,41.9145037,-83.3968252
Montague,Michigan,09/02/1901,43.4166772,-86.357013
Montgomery,Michigan,04/01/1902,41.7772715,-84.8041246
Montrose,Michigan,07/01/1902,43.1766935,-83.8927439
Moorepark,Michigan,09/01/1903,42.013062,-85.5931299
Morenci,Michigan,11/01/1900,41.7195109,-84.2173964
Morgan,Michigan,02/15/1904,42.6225355,-85.1763908
Morley,Michigan,10/01/1901,43.4908606,-85.4439283
Morrice,Michigan,11/15/1900,42.8386425,-84.1783003
Moscow,Michigan,04/01/1902,42.0502346,-84.5098799
Mosherville,Michigan,12/15/1903,42.0603223,-84.6594047
Mount Clemens,Michigan,06/02/1902,42.5972563,-82.8779754
Mount Morris,Michigan,09/01/1902,43.1186374,-83.6949583
Mount Pleasant,Michigan,02/01/1902,43.597646,-84.7668495
Muir,Michigan,03/15/1901,42.9958661,-84.9425013
Mulliken,Michigan,07/01/1903,42.762257,-84.8963815
Munger,Michigan,02/01/1902,43.5219674,-83.7733026
Munith,Michigan,10/15/1900,42.3905913,-84.2505159
Muskegon,Michigan,04/16/1900,43.2341813,-86.2483921
Napoleon,Michigan,07/01/1902,42.1605944,-84.2460616
Nashville,Michigan,04/01/1903,42.6028137,-85.0930536
Nessen City,Michigan,10/01/1903,44.5200018,-85.8781352
New Baltimore,Michigan,08/01/1904,42.6811436,-82.7368616
New Boston,Michigan,08/01/1903,42.1625408,-83.4029885
New Haven,Michigan,07/01/1904,43.0936376,-84.1533058
New Hudson,Michigan,11/01/1902,42.511756,-83.6146484
New Lothrop,Michigan,05/01/1902,,
Newaygo,Michigan,11/01/1901,43.5121225,-85.7944976
Newport,Michigan,01/15/1904,42.0022672,-83.3085419
Niles,Michigan,09/01/1900,41.8297694,-86.2541768
North Adams,Michigan,11/01/1901,41.9708795,-84.525783
North Benton,Michigan,07/01/1901,42.12893,-83.862164
North Detroit,Michigan,07/01/1903,42.331357,-83.0521509
Northbranch,Michigan,12/01/1903,nf,nf
Northstar,Michigan,01/01/1904,45.029564,-84.2469189
Northstreet,Michigan,09/15/1904,nf,nf
Northville,Michigan,11/01/1902,42.4310806,-83.4832262
Norvell,Michigan,10/01/1901,42.1575391,-84.1841156
Nottawa,Michigan,05/01/1899,41.9189385,-85.4488749
Novi,Michigan,10/01/1902,42.48059,-83.4754913
Nunica,Michigan,04/01/1904,43.0797424,-86.0672715
Oakgrove,Michigan,10/01/1902,42.668258,-83.6081969
Oakley,Michigan,05/01/1903,43.1397481,-84.1680305
Okemos,Michigan,02/01/1901,42.721839,-84.428183
Old Mission,Michigan,08/01/1902,44.9622232,-85.485356
Olivet,Michigan,02/15/1901,42.4414273,-84.9241542
Onondaga,Michigan,03/16/1903,42.4442037,-84.5621963
Onsted,Michigan,07/01/1902,42.0061554,-84.1899443
Orchard Lake,Michigan,10/15/1900,42.5830887,-83.3593798
Orion,Michigan,09/01/1902,43.4419638,-86.1851964
Orleans,Michigan,01/01/1904,43.0686431,-85.1350121
Ortonville,Michigan,08/01/1902,42.8522506,-83.4430002
Oshtemo,Michigan,07/01/1901,42.2589164,-85.6772419
Osseo,Michigan,03/01/1902,41.885881,-84.544117
Otisville,Michigan,07/01/1902,43.1661367,-83.5243976
Otsego,Michigan,03/15/1902,45.0244123,-84.6136788
Ottawa Lake,Michigan,09/01/1903,46.0842574,-88.7639278114276
Otter Lake,Michigan,02/15/1904,43.2133586,-83.4543963
Ovid,Michigan,11/01/1900,43.0058396,-84.3714696
Owendale,Michigan,04/01/1903,43.7291829,-83.2680085
Owosso,Michigan,11/01/1898,42.9978049,-84.1766359
Oxford,Michigan,07/01/1901,42.8247524,-83.2646624
Palms,Michigan,09/01/1904,43.6136288,-82.7682675
Palmyra,Michigan,09/01/1902,41.8597702,-83.9357757
Paris,Michigan,09/01/1903,43.7733539,-85.5025468
Parklake,Michigan,02/15/1904,42.281005,-83.7936679
Parkville,Michigan,08/01/1902,42.0158813,-85.5477706
Parma,Michigan,09/01/1902,42.2583711,-84.5996885
Paw Paw,Michigan,09/15/1900,42.2178171,-85.8911246
Peck,Michigan,07/15/1904,43.2586357,-82.8174329
Penfield,Michigan,11/01/1904,41.959736,-83.6519829
Pentwater,Michigan,04/01/1902,43.7816728,-86.4331355
Perrinton,Michigan,08/15/1900,43.1828386,-84.6788558
Perry,Michigan,11/15/1900,42.8264205,-84.2194127
Petersburg,Michigan,09/01/1904,41.9011578,-83.7149383
Petoskey,Michigan,08/01/1902,45.3733428,-84.9553297
Pewamo,Michigan,01/01/1904,43.0011442,-84.8469423
Pierson,Michigan,09/15/1903,43.3197498,-85.4978137
Pigeon,Michigan,11/02/1903,43.8303382,-83.2708371
Pinckney,Michigan,07/01/1901,42.4567013,-83.9463359
Pinconning,Michigan,03/01/1902,43.8536325,-83.964987
Pittsford,Michigan,03/01/1901,41.8622703,-84.4768925
Plainwell,Michigan,03/01/1902,42.4400357,-85.6489035
Plymouth,Michigan,08/15/1900,42.3712,-83.4675021
Pompeii,Michigan,01/01/1904,43.1839201,-84.6008291
Pontiac,Michigan,10/01/1900,42.6389216,-83.2910468
Port Austin,Michigan,08/01/1902,44.0461253,-82.994114
Port Hope,Michigan,02/15/1904,43.9408446,-82.7127124
Port Huron,Michigan,01/15/1904,42.9815877,-82.440466
Portland,Michigan,02/15/1901,42.8692006,-84.9030517
Potterville,Michigan,04/01/1903,42.629203,-84.738874
Prattville,Michigan,02/01/1902,41.7822718,-84.3996699
Pulaski,Michigan,11/01/1904,42.1150427,-84.6424619
Quimby,Michigan,07/01/1904,42.9894284,-85.6640705
Quincy,Michigan,11/15/1900,41.9442145,-84.8838525
Racy,Michigan,10/01/1903,43.1950256,-84.3060942
Ransom,Michigan,12/15/1903,41.7753274,-84.5341161
Rapid City,Michigan,11/01/1904,44.8344485,-85.282562
Ravenna,Michigan,11/01/1901,43.1896255,-85.9370397
Reading,Michigan,02/01/1901,41.8394928,-84.7480134
Reed City,Michigan,03/01/1902,43.8750174,-85.5100498
Reese,Michigan,05/01/1902,43.4505787,-83.6963533
Remus,Michigan,10/01/1903,43.5966952,-85.1447524
Richland,Michigan,10/01/1903,42.3761504,-85.4550054
Richmond,Michigan,06/02/1902,42.8091969,-82.7557554
Ridgeway,Michigan,05/02/1898,41.9939334,-83.8627184
Riga,Michigan,03/15/1901,41.8092159,-83.8249404
Riverdale,Michigan,04/01/1904,43.3855873,-84.835568
Rives Junction,Michigan,09/01/1902,42.3858695,-84.4616334
Rochester,Michigan,07/01/1901,42.680588,-83.1338214
Rockford,Michigan,02/15/1901,43.1200273,-85.5600316
Rockwood,Michigan,02/01/1904,42.0708765,-83.2465957
Rodney,Michigan,04/15/1904,43.6736363,-85.3283727
Rogersville,Michigan,09/01/1902,43.1228039,-83.5768987
Romeo,Michigan,06/02/1902,42.802808,-83.0129874
Romulus,Michigan,09/01/1903,42.2222614,-83.3965995
Rosebush,Michigan,02/01/1904,43.6992061,-84.7678009
Roseville,Michigan,08/15/1904,42.4972583,-82.9371409
Ross,Michigan,10/01/1903,42.7825296,-85.6944708
Royal Oak,Michigan,07/01/1902,42.4894801,-83.1446485
Rushton,Michigan,09/01/1900,42.4519788,-83.6960516
Ruth,Michigan,11/01/1904,43.7152941,-82.7402112
Saginaw,Michigan,08/15/1900,43.4200387,-83.9490365
Saginaw West Side,Michigan,08/15/1900,nf,nf
Saint Charles,Michigan,11/15/1900,43.2969699,-84.1405346
Saint Clair,Michigan,07/02/1900,42.9426715,-82.6283554
Saint Johns,Michigan,12/04/1899,43.000928,-84.5585098
Saint Joseph,Michigan,08/01/1902,41.9031963,-85.5356726
Saint Louis,Michigan,07/16/1900,43.4083637,-84.6066704
Salem,Michigan,07/01/1902,42.4061467,-83.579938
Saline,Michigan,03/15/1900,42.1667072,-83.7816075
Samaria,Michigan,06/15/1904,41.808103,-83.578269
Sand Hill,Michigan,09/02/1901,46.3161298,-84.2047526
Sand Lake,Michigan,09/02/1901,43.2923804,-85.5180726
Sandcreek,Michigan,11/01/1902,nf,nf
Sanilac Center,Michigan,03/01/1904,43.4150687,-82.8234745
Saranac,Michigan,12/02/1901,42.9292232,-85.2129031
Sault Sainte Marie,Michigan,09/01/1904,46.492138,-84.3406819
Schoolcraft,Michigan,07/01/1902,46.1902943,-86.1833841
Scotts,Michigan,10/01/1903,42.1958775,-85.4130517
Scottville,Michigan,11/01/1901,43.9547284,-86.2800787
Sears,Michigan,08/01/1904,43.8984534,-85.1876599
Sebewa,Michigan,01/01/1904,42.7994787,-84.9558292
Sebewaing,Michigan,04/15/1904,43.7322394,-83.4510724
Shabbona,Michigan,09/01/1904,43.5314077,-83.0541094
Shaftsburg,Michigan,04/01/1902,42.8046881,-84.2928431
Shelby,Michigan,09/02/1901,42.6708659,-83.0329844
Shelbyville,Michigan,02/01/1902,42.5941998,-85.6372414
Shepardsville,Michigan,04/01/1902,43.0044741,-84.4258128
Shepherd,Michigan,03/01/1902,43.5244747,-84.6947325
Sheridan,Michigan,03/01/1902,43.2122542,-85.0736264
Sherman,Michigan,02/15/1904,44.4238926,-85.6967343
Sherwood,Michigan,02/01/1901,42.0014374,-85.2385898
Shiloh,Michigan,01/01/1904,43.1047543,-85.0850115
Silverwood,Michigan,03/02/1903,43.3233576,-83.2480026
Sixlakes,Michigan,01/15/1904,nf,nf
Smiths Creek,Michigan,01/15/1904,42.899152,-82.5953349
Smyrna,Michigan,01/01/1904,43.0594759,-85.2627949
Sodus,Michigan,04/01/1903,42.0436541,-86.369186
Somerset Center,Michigan,12/15/1903,42.0511543,-84.4135604
South Boardman,Michigan,02/15/1904,44.6413944,-85.2797789
South Frankfort,Michigan,10/01/1903,44.6336219,-86.2341835
South Haven,Michigan,10/17/1898,42.4030865,-86.2736407
South Lyon,Michigan,10/01/1902,42.451377,-83.659179
South Rockwood,Michigan,02/01/1904,42.0639323,-83.2610406
Sparta,Michigan,09/02/1901,43.1608578,-85.7100393
Spring Arbor,Michigan,11/01/1904,42.2050383,-84.5527387
Springlake,Michigan,05/16/1904,42.5232894,-83.4996596
Springport,Michigan,06/04/1900,44.6352913,-83.305523
Standish,Michigan,07/01/1902,43.9830762,-83.9588803
Stanton,Michigan,03/01/1902,43.2925317,-85.0814074
Stanwood,Michigan,04/15/1904,43.5786367,-85.4492081
Sterling,Michigan,04/01/1904,44.0333538,-84.0227717
Stevensville,Michigan,02/15/1904,42.0144871,-86.5194654
Stockbridge,Michigan,03/01/1902,42.4511466,-84.1805146
Sturgis,Michigan,07/01/1902,41.799217,-85.4191482
Summit City,Michigan,07/01/1904,44.5508365,-85.5150639
Sumner,Michigan,12/15/1904,43.3069767,-84.8158427
Sunfield,Michigan,04/01/1903,42.7622568,-84.9924962
Swancreek,Michigan,01/01/1904,nf,nf
Swartz Creek,Michigan,02/15/1901,42.9572508,-83.8305144
Tecumseh,Michigan,09/02/1901,42.0039331,-83.9449417
Tekonsha,Michigan,04/02/1900,42.0933791,-84.9858051
Temperance,Michigan,06/15/1904,41.7793487,-83.5688386
Thompsonville,Michigan,04/15/1904,44.5202794,-85.9439718
Three Oaks,Michigan,09/01/1902,41.7986545,-86.6105778
Three Rivers,Michigan,02/01/1902,41.9473405,-85.6315180222577
Tipton,Michigan,05/02/1898,42.0167106,-84.06411
Townhouse,Michigan,04/01/1902,42.558693,-82.9253049
Traverse City,Michigan,08/01/1902,44.7606441,-85.6165301
Troy,Michigan,11/01/1902,42.6055893,-83.1499304
Tustin,Michigan,09/01/1903,44.1025116,-85.458941
Twining,Michigan,04/01/1904,44.1130749,-83.8074873
Tyre,Michigan,07/15/1904,43.6750164,-82.8910499
Ubly,Michigan,04/01/1904,43.7100157,-82.9316072
Union City,Michigan,04/16/1900,42.0667135,-85.1360882
Unionville,Michigan,03/16/1903,43.6536297,-83.4660708
Utica,Michigan,12/15/1903,42.6261446,-83.0335384
Vandalia,Michigan,01/01/1903,41.9169911,-85.9147253
Varney,Michigan,10/01/1903,44.7769437,-85.8792531
Vassar,Michigan,06/04/1900,43.3719678,-83.5832917
Vermontville,Michigan,08/01/1900,42.6289247,-85.0241621
Vernon,Michigan,06/04/1900,42.9391971,-84.0294082
Vestaburg,Michigan,04/01/1904,43.3991982,-84.905571
Vickeryville,Michigan,04/01/1904,43.1922546,-84.9652882
Vicksburg,Michigan,07/01/1902,42.1200456,-85.532775
Waldron,Michigan,02/01/1902,41.7278281,-84.418837
Wales,Michigan,01/15/1904,42.709443,-83.2040259
Walkerville,Michigan,04/15/1904,43.7144551,-86.1245131
Wallace,Michigan,04/15/1904,45.3260874,-87.6140022
Walled Lake,Michigan,05/01/1902,42.537811,-83.4810481
Warren,Michigan,02/15/1904,42.4775364,-83.0277001
Washington,Michigan,12/15/1903,42.302049,-83.2571029
Watervliet,Michigan,10/01/1903,42.1867052,-86.2605776
Wayland,Michigan,09/15/1903,42.6745321,-85.6457663
Wayne,Michigan,10/01/1902,42.2682408,-83.2844172
Webberville,Michigan,07/01/1901,42.6668257,-84.174432
Weidman,Michigan,11/01/1904,43.6875278,-84.9689133
West Bay City,Michigan,02/03/1901,,
Westbranch,Michigan,05/02/1904,nf,nf
Weston,Michigan,01/15/1904,41.7703281,-84.0977232
Wheeler,Michigan,04/01/1904,43.4128067,-84.4377735
White Pigeon,Michigan,08/01/1902,41.7981056,-85.6433229
Whitecloud,Michigan,04/15/1904,nf,nf
Whitehall,Michigan,10/01/1901,43.4100107,-86.3486792
Whitmore Lake,Michigan,04/01/1904,42.439479,-83.7438303
Williamston,Michigan,08/15/1900,42.6888478,-84.2827933
Willis,Michigan,08/01/1903,42.1583742,-83.5579923
Wilmot,Michigan,06/01/1904,43.4639099,-83.1902234
Woodland,Michigan,04/01/1903,42.7267014,-85.1336129
Wyandotte,Michigan,07/01/1903,42.2006617,-83.1510164
Yale ,Michigan,10/01/1903,43.130026,-82.7982634
Yorkville,Michigan,06/15/1904,42.3753172,-85.40167
Ypsilanti,Michigan,10/23/1899,42.2411499,-83.6129939
Zealand,Michigan,07/01/1902,nf,nf
